City_ID,City,Lat,Lng,Max Temp,Humidity,Cloudiness,Wind Speed,Country,Date
0,hobart,-42.8794,147.3294,53.46,72,75,17.27,AU,1668580755
1,kaka,37.3482,59.6143,54.68,41,0,3.04,TM,1668580880
2,yellowknife,62.456,-114.3525,16.32,73,75,19.57,CA,1668580881
3,san cristobal,7.7669,-72.225,64.65,96,95,1.92,VE,1668580881
4,punta arenas,-53.15,-70.9167,46.51,61,40,5.75,CL,1668580881
5,constitucion,-35.3333,-72.4167,55.99,75,0,8.48,CL,1668580882
6,fortuna,40.5982,-124.1573,41.92,100,0,10.36,US,1668580780
7,busselton,-33.65,115.3333,69.66,57,100,18.12,AU,1668580882
8,port elizabeth,-33.918,25.5701,73.09,60,0,16.11,ZA,1668580883
9,leh,34.1667,77.5833,21.94,55,32,2.42,IN,1668580883
10,khatanga,71.9667,102.5,-8.68,98,99,7.61,RU,1668580884
11,albany,42.6001,-73.9662,32.59,91,100,2.35,US,1668580884
12,mataura,-46.1927,168.8643,58.48,90,100,2.1,NZ,1668580885
13,doha,25.2867,51.5333,85.98,41,0,3.44,QA,1668580749
14,roma,43.2128,-75.4557,32.95,93,100,6.91,US,1668580885
15,vostok,46.4856,135.8833,19.96,89,100,1.88,RU,1668580886
16,puerto ayora,-0.7393,-90.3518,67.55,89,70,8.01,EC,1668580886
17,puerto escondido,15.85,-97.0667,77.5,74,41,4.85,MX,1668580887
18,antofagasta,-23.65,-70.4,60.08,76,0,1.39,CL,1668580887
19,jamestown,42.097,-79.2353,34.72,80,100,9.22,US,1668580782
20,puri,19.8,85.85,82.92,39,97,9.4,IN,1668580888
21,fasa,28.9383,53.6482,63.64,42,0,0.0,IR,1668580888
22,coquimbo,-29.9533,-71.3436,56.93,100,40,8.05,CL,1668580889
23,cap-aux-meules,47.3821,-61.8597,35.62,64,100,13.8,CA,1668580889
24,chokurdakh,70.6333,147.9167,-35.14,100,49,1.32,RU,1668580889
25,margate,51.3813,1.3862,52.9,92,80,5.99,GB,1668580890
26,merauke,-8.4667,140.3333,81.82,77,100,1.79,ID,1668580890
27,moniquira,5.8764,-73.5728,58.39,97,100,3.65,CO,1668580891
28,asyut,27.181,31.1837,57.38,45,97,6.91,EG,1668580891
29,lorengau,-2.0226,147.2712,83.88,73,25,5.73,PG,1668580891
30,fare,-16.7,-151.0167,79.34,74,82,3.53,PF,1668580892
31,fukue,32.6881,128.8419,64.76,39,40,9.22,JP,1668580892
32,rikitea,-23.1203,-134.9692,74.86,82,100,20.2,PF,1668580893
33,bredasdorp,-34.5322,20.0403,63.46,61,97,4.63,ZA,1668580893
34,hithadhoo,-0.6,73.0833,81.64,76,100,11.32,MV,1668580893
35,kapaa,22.0752,-159.319,73.72,76,20,12.66,US,1668580894
36,havoysund,70.9963,24.6622,41.23,79,100,9.84,NO,1668580894
37,castro,-24.7911,-50.0119,51.37,82,0,4.18,BR,1668580895
38,namibe,-15.1961,12.1522,68.38,74,70,3.8,AO,1668580895
39,iqaluit,63.7506,-68.5145,6.53,78,100,8.05,CA,1668580734
40,cape town,-33.9258,18.4232,69.39,60,20,5.75,ZA,1668580875
41,svetlogorsk,52.6333,29.7333,36.91,88,100,7.27,BY,1668580896
42,lagoa,39.05,-27.9833,64.08,92,19,28.7,PT,1668580897
43,codrington,-38.2667,141.9667,53.8,67,69,12.53,AU,1668580897
44,corralillo,22.9819,-80.5856,76.44,84,6,8.72,CU,1668580630
45,derzhavinsk,51.1,66.3167,20.64,78,100,16.35,KZ,1668580898
46,port alfred,-33.5906,26.891,71.19,64,28,5.01,ZA,1668580898
47,hilo,19.7297,-155.09,71.26,95,0,5.75,US,1668580664
48,saint-philippe,-21.3585,55.7679,78.39,65,64,9.26,RE,1668580899
49,tuatapere,-46.1333,167.6833,57.99,86,100,3.11,NZ,1668580899
50,severo-kurilsk,50.6789,156.125,34.0,71,66,9.89,RU,1668580900
51,krivosheino,57.3431,83.9261,32.47,97,100,13.4,RU,1668580900
52,ushuaia,-54.8,-68.3,46.06,57,0,4.61,AR,1668580889
53,qaanaaq,77.484,-69.3632,-2.04,87,22,5.97,GL,1668580900
54,conakry,9.538,-13.6773,78.71,78,88,2.21,GN,1668580832
55,aksu,41.1231,80.2644,44.89,32,100,2.51,CN,1668580901
56,zyryanka,65.75,150.85,-16.19,94,100,15.66,RU,1668580901
57,liberal,37.0431,-100.921,24.94,86,0,10.36,US,1668580902
58,monrovia,6.3005,-10.7969,75.87,86,93,1.61,LR,1668580902
59,kulu,39.0951,33.0799,50.0,49,4,3.94,TR,1668580903
60,ponta do sol,32.6667,-17.1,67.71,65,100,5.12,PT,1668580903
61,dikson,73.5069,80.5464,-7.42,99,97,2.44,RU,1668580903
62,tooele,40.5308,-112.2983,28.09,86,0,6.91,US,1668580800
63,kirakira,-10.4544,161.9205,81.82,78,87,1.19,SB,1668580904
64,victoria,22.2855,114.1577,82.45,84,95,1.99,HK,1668580686
65,quarai,-30.3875,-56.4514,61.84,52,65,1.61,BR,1668580904
66,noumea,-22.2763,166.4572,80.58,80,100,7.02,NC,1668580905
67,chara,56.9064,118.2631,6.66,85,88,0.96,RU,1668580905
68,bluff,-46.6,168.3333,58.8,93,100,8.19,NZ,1668580906
69,kavieng,-2.5744,150.7967,83.95,65,75,8.34,PG,1668580906
70,pangai,-19.8,-174.35,77.97,78,0,6.58,TO,1668580907
71,klaksvik,62.2266,-6.589,47.32,91,100,16.08,FO,1668580907
72,norman wells,65.282,-126.8329,6.84,92,40,4.61,CA,1668580908
73,atuona,-9.8,-139.0333,77.83,74,0,12.3,PF,1668580908
74,tiznit,29.5833,-9.5,62.6,26,28,3.02,MA,1668580909
75,kruisfontein,-34.0033,24.7314,70.88,61,47,15.79,ZA,1668580909
76,avarua,-21.2078,-159.775,73.45,68,100,6.91,CK,1668580909
77,prudy,57.5738,46.2718,18.81,74,40,3.06,RU,1668580910
78,tiksi,71.6872,128.8694,-21.24,98,88,6.85,RU,1668580910
79,tasiilaq,65.6145,-37.6368,32.16,59,100,6.8,GL,1668580911
80,henties bay,-22.116,14.2845,61.56,79,0,7.14,NA,1668580911
81,hermanus,-34.4187,19.2345,64.8,72,48,7.27,ZA,1668580911
82,verkhoyansk,67.5447,133.385,-36.65,99,64,2.21,RU,1668580912
83,bethel,41.3712,-73.414,38.01,87,100,7.0,US,1668580912
84,luderitz,-26.6481,15.1594,69.24,39,7,12.95,NA,1668580913
85,altamont,42.2068,-121.7372,31.78,74,0,4.0,US,1668580913
86,pevek,69.7008,170.3133,5.49,87,100,12.3,RU,1668580913
87,clyde river,70.4692,-68.5914,-1.97,65,0,6.91,CA,1668580914
88,marienburg,54.0359,19.0266,42.85,71,98,12.17,PL,1668580726
89,nikolskoye,59.7035,30.7861,30.78,73,100,4.59,RU,1668580914
90,butaritari,3.0707,172.7902,81.32,78,100,13.82,KI,1668580915
91,belaya gora,68.5333,146.4167,-26.25,99,100,1.1,RU,1668580915
92,anori,-3.7728,-61.6442,73.45,99,100,3.6,BR,1668580915
93,manggar,-2.8833,108.2667,84.24,72,100,5.44,ID,1668580916
94,katsuura,35.1333,140.3,59.34,51,1,4.74,JP,1668580916
95,camacha,33.0833,-16.3333,65.62,83,40,6.91,PT,1668580917
96,san patricio,28.017,-97.5169,48.83,57,100,11.54,US,1668580917
97,tigil,57.8,158.6667,21.25,83,100,10.27,RU,1668580917
98,pangnirtung,66.1451,-65.7125,-0.4,90,100,2.55,CA,1668580918
99,plettenberg bay,-34.0527,23.3716,65.95,73,90,6.64,ZA,1668580918
100,maltahohe,-24.8333,16.9833,71.02,19,0,11.56,NA,1668580919
101,raudeberg,61.9875,5.1352,50.86,40,65,13.67,NO,1668580919
102,alice springs,-23.7,133.8833,56.75,94,100,8.05,AU,1668580919
103,san carlos de bariloche,-41.1456,-71.3082,53.35,66,20,18.41,AR,1668580825
104,northam,51.0333,-4.2167,47.25,97,100,18.14,GB,1668580920
105,cap malheureux,-19.9842,57.6142,72.95,63,81,9.62,MU,1668580921
106,port hedland,-20.3167,118.5667,75.25,94,75,9.22,AU,1668580921
107,tuktoyaktuk,69.4541,-133.0374,-0.4,85,40,5.75,CA,1668580922
108,kiunga,-6.1219,141.2906,83.95,79,88,3.98,PG,1668580922
109,bonavista,48.6499,-53.1147,33.06,76,97,16.89,CA,1668580923
110,bengkulu,-3.8004,102.2655,85.15,69,28,19.53,ID,1668580923
111,kangaatsiaq,68.3065,-53.4641,25.07,72,100,11.03,GL,1668580924
112,wattegama,6.7989,81.4808,85.37,63,100,3.2,LK,1668580924
113,black river,18.0264,-77.8487,75.34,87,11,5.79,JM,1668580925
114,poddorye,57.4695,31.1156,29.57,79,100,7.25,RU,1668580925
115,zuwarah,32.9312,12.082,64.24,40,0,13.53,LY,1668580925
116,carnarvon,-24.8667,113.6333,72.73,69,0,25.12,AU,1668580926
117,esperance,-33.8667,121.9,74.01,45,41,17.0,AU,1668580926
118,corrente,-3.7367,-43.3394,70.18,96,65,2.28,BR,1668580927
119,nilokheri,29.8333,76.9167,78.96,28,0,8.25,IN,1668580927
120,senneterre,48.3835,-77.2328,22.46,76,100,5.61,CA,1668580928
121,san andres del rabanedo,42.6117,-5.6167,48.76,100,100,8.05,ES,1668580928
122,khorramshahr,30.4397,48.1664,75.16,57,40,4.61,IR,1668580929
123,coihaique,-45.5752,-72.0662,45.21,93,75,3.44,CL,1668580929
124,bambous virieux,-20.3428,57.7575,77.25,57,40,5.75,MU,1668580929
125,east london,-33.0153,27.9116,68.94,68,20,12.66,ZA,1668580657
126,husavik,66.0449,-17.3389,42.15,93,98,8.3,IS,1668580930
127,pacific grove,36.6177,-121.9166,58.08,61,0,6.91,US,1668580740
128,khandagayty,50.7333,92.05,23.88,78,45,2.06,RU,1668580931
129,comodoro rivadavia,-45.8667,-67.5,58.86,41,0,13.8,AR,1668580887
130,georgetown,5.4112,100.3354,87.75,78,20,7.0,MY,1668580931
131,abu samrah,35.3029,37.1841,59.67,74,33,7.16,SY,1668580932
132,madaoua,14.073,5.96,69.96,23,10,8.77,NE,1668580932
133,kungurtug,50.5994,97.5228,32.59,50,63,2.89,RU,1668580932
134,pauini,-7.7136,-66.9764,71.51,99,100,2.71,BR,1668580933
135,lavrentiya,65.5833,-171.0,31.82,94,100,25.84,RU,1668580933
136,abnub,27.2696,31.1511,57.42,45,92,6.51,EG,1668580934
137,san quintin,30.4833,-115.95,59.27,68,0,5.44,MX,1668580934
138,souillac,-20.5167,57.5167,77.38,57,40,5.75,MU,1668580935
139,flin flon,54.7682,-101.865,17.44,96,100,5.41,CA,1668580935
140,belyy yar,53.6039,91.3903,44.85,45,0,22.37,RU,1668580936
141,ostersund,63.1792,14.6357,28.62,100,100,6.91,SE,1668580936
142,sangar,63.9242,127.4739,-32.91,97,23,4.65,RU,1668580937
143,salalah,17.0151,54.0924,82.49,57,0,2.3,OM,1668580799
144,upernavik,72.7868,-56.1549,17.47,75,100,2.42,GL,1668580937
145,mount isa,-20.7333,139.5,91.17,18,40,14.97,AU,1668580938
146,sudbury,46.49,-80.99,25.05,90,100,10.0,CA,1668580938
147,arraial do cabo,-22.9661,-42.0278,72.34,91,100,12.57,BR,1668580938
148,sioux lookout,50.1001,-91.917,19.47,93,100,2.3,CA,1668580939
149,rawson,-43.3002,-65.1023,65.14,51,54,7.61,AR,1668580939
150,tevriz,57.509,72.4042,11.93,88,100,7.09,RU,1668580940
151,vardo,70.3705,31.1107,39.18,87,75,13.8,NO,1668580940
152,new norfolk,-42.7826,147.0587,53.1,58,87,3.0,AU,1668580941
153,matay,28.419,30.7792,65.39,46,0,3.15,EG,1668580941
154,kenai,60.5544,-151.2583,29.14,98,0,5.75,US,1668580941
155,lieksa,63.3167,30.0167,31.93,83,95,9.17,FI,1668580942
156,sosua,19.7667,-70.5167,76.23,94,75,0.0,DO,1668580943
157,nanortalik,60.1432,-45.2371,23.07,86,100,15.95,GL,1668580943
158,kaitangata,-46.2817,169.8464,55.08,95,100,3.6,NZ,1668580943
159,bambanglipuro,-7.95,110.2833,81.23,79,100,4.85,ID,1668580944
160,koppang,61.5706,11.0555,33.3,77,100,5.84,NO,1668580944
161,murgab,37.4966,61.9714,51.67,62,0,0.0,TM,1668580945
162,perisoru,44.45,27.55,45.82,93,100,8.75,RO,1668580945
163,padang,-0.9492,100.3543,75.25,95,100,6.71,ID,1668580946
164,salekhard,66.53,66.6019,-5.21,86,35,6.62,RU,1668580946
165,inhambane,-23.865,35.3833,78.78,61,20,6.91,MZ,1668580946
166,goundam,16.4145,-3.6708,76.48,13,100,8.39,ML,1668580771
167,turukhansk,65.8167,87.9833,-19.21,89,5,5.12,RU,1668580947
168,saldanha,-33.0117,17.9442,64.45,76,91,10.85,ZA,1668580947
169,antalaha,-14.9003,50.2788,79.25,70,31,9.37,MG,1668580948
170,ngama,11.7833,17.1667,79.29,20,8,14.18,TD,1668580948
171,barrow,71.2906,-156.7887,19.42,73,40,20.71,US,1668580949
172,kijang,35.2442,129.2139,64.13,37,5,7.96,KR,1668580949
173,lucea,18.451,-78.1736,78.66,80,13,12.17,JM,1668580949
174,tula,54.2044,37.6111,32.59,93,91,11.23,RU,1668580950
175,tura,25.5198,90.2201,76.53,56,0,3.44,IN,1668580811
176,severnyy,50.677,36.5532,37.44,100,100,6.71,RU,1668580950
177,torbay,47.6666,-52.7314,33.28,87,75,8.05,CA,1668580951
178,bage,-31.3314,-54.1069,55.18,82,0,3.44,BR,1668580951
179,russkaya polyana,49.417,31.9201,40.32,85,91,6.49,UA,1668580952
180,mega,4.05,38.3,70.03,46,5,15.93,ET,1668580952
181,hamilton,39.1834,-84.5333,39.09,87,100,11.5,US,1668580952
182,shemonaikha,50.6328,81.9056,36.72,73,11,16.64,KZ,1668580953
183,funtua,11.5233,7.3081,66.38,31,52,12.26,NG,1668580953
184,lata,40.1629,-8.3327,60.82,97,100,6.82,PT,1668580954
185,sao jose da coroa grande,-8.8978,-35.1478,75.09,82,49,6.6,BR,1668580954
186,santa barbara,34.7333,-120.0343,48.78,100,0,0.0,US,1668580858
187,kailua,21.4022,-157.7394,75.18,76,0,15.77,US,1668580954
188,caravelas,-17.7125,-39.2481,74.16,91,17,6.69,BR,1668580955
189,srednekolymsk,67.45,153.6833,-21.08,98,100,8.55,RU,1668580955
190,fez,34.0372,-4.9998,53.85,46,0,4.61,MA,1668580956
191,beira,-19.8436,34.8389,82.18,59,3,3.06,MZ,1668580956
192,zhigansk,66.7697,123.3711,-24.59,99,100,10.29,RU,1668580956
193,hermiston,45.8404,-119.2895,33.62,90,100,9.22,US,1668580957
194,port shepstone,-30.7414,30.455,72.1,75,95,18.39,ZA,1668580957
195,airai,-8.9266,125.4092,71.98,65,100,1.72,TL,1668580958
196,acapulco,16.8634,-99.8901,76.82,83,0,0.0,MX,1668580958
197,qaqortoq,60.7167,-46.0333,13.42,92,72,2.84,GL,1668580959
198,qeshm,26.9581,56.2719,85.87,66,0,11.72,IR,1668580959
199,rorvik,64.8621,11.2373,41.11,52,0,13.8,NO,1668580960
200,tutoia,-2.7619,-42.2744,77.65,77,4,13.6,BR,1668580960
201,phalombe,-15.8064,35.6507,79.12,64,25,2.1,MW,1668580960
202,areosa,41.7178,-8.8571,59.29,94,100,14.58,PT,1668580961
203,kaeo,-35.1,173.7833,68.32,89,99,2.86,NZ,1668580961
204,vestmanna,62.1564,-7.1664,45.52,93,75,14.97,FO,1668580962
205,pringsewu,-5.3582,104.9744,83.48,72,100,4.23,ID,1668580962
206,sao joao da barra,-21.6403,-41.0511,70.43,92,100,8.43,BR,1668580962
207,necochea,-38.5473,-58.7368,55.98,65,0,4.32,AR,1668580963
208,naze,28.3667,129.4833,67.12,60,100,10.09,JP,1668580963
209,razdolinsk,58.4211,94.6658,32.05,98,100,10.31,RU,1668580964
210,mandurah,-32.55,115.7,72.88,71,5,19.1,AU,1668580964
211,mount gambier,-37.8333,140.7667,55.42,54,42,9.57,AU,1668580964
212,kathu,7.9178,98.3332,85.69,99,100,1.81,TH,1668580965
213,alofi,-19.0595,-169.9187,76.89,94,100,2.3,NU,1668580965
214,auki,-8.7676,160.7034,80.35,78,63,1.72,SB,1668580966
215,fethiye,36.6217,29.1164,53.47,63,7,1.39,TR,1668580966
216,nevsehir,38.9167,34.6667,38.41,70,75,5.75,TR,1668580967
217,gamba,-2.65,10.0,78.13,77,100,5.06,GA,1668580967
218,springbok,-29.6643,17.8865,57.78,58,20,6.91,ZA,1668580968
219,hasaki,35.7333,140.8333,64.29,41,3,4.99,JP,1668580968
220,pontes e lacerda,-15.2261,-59.3353,68.76,95,26,2.55,BR,1668580969
221,portree,57.4129,-6.1942,43.52,90,91,7.34,GB,1668580969
222,kitami,43.8031,143.8908,42.12,86,100,5.57,JP,1668580969
223,ribeira grande,38.5167,-28.7,67.77,93,21,15.01,PT,1668580970
224,mahebourg,-20.4081,57.7,77.29,57,40,5.75,MU,1668580970
225,longkou,37.6508,120.3286,54.75,51,100,5.88,CN,1668580970
226,nokaneng,-19.6667,22.2667,84.69,34,0,10.0,BW,1668580971
227,sahbuz,39.4072,45.5739,40.6,44,100,3.44,AZ,1668580971
228,faanui,-16.4833,-151.75,79.75,74,100,3.98,PF,1668580972
229,luklukan,14.3254,122.7124,80.71,87,100,13.04,PH,1668580972
230,cabo san lucas,22.8909,-109.9124,74.52,73,52,3.47,MX,1668580739
231,samarai,-10.6167,150.6667,85.46,74,97,14.12,PG,1668580973
232,sembakung,3.8167,117.25,89.08,60,90,4.54,ID,1668580973
233,namatanai,-3.6667,152.4333,82.69,69,100,7.54,PG,1668580973
234,matara,5.9485,80.5353,84.22,64,100,6.17,LK,1668580974
235,killybegs,54.6333,-8.45,41.49,92,36,6.51,IE,1668580974
236,huarmey,-10.0681,-78.1522,63.46,87,56,7.58,PE,1668580975
237,walvis bay,-22.9575,14.5053,58.08,62,0,10.51,NA,1668580856
238,yangliuqing,39.1375,116.9997,60.75,28,30,7.63,CN,1668580975
239,maxixe,-23.8597,35.3472,78.62,61,20,6.91,MZ,1668580976
240,kodiak,57.79,-152.4072,44.11,93,100,9.22,US,1668580976
241,svetlyy,54.675,20.1347,37.45,78,82,16.2,RU,1668580977
242,melioratorov,57.2107,65.6077,1.63,78,100,15.66,RU,1668580977
243,nakamura,32.9833,132.9333,59.23,55,2,6.13,JP,1668580977
244,jiexiu,37.0244,111.9125,56.93,23,1,6.24,CN,1668580978
245,harer,9.3094,42.1258,68.88,26,0,1.74,ET,1668580978
246,geraldton,-28.7667,114.6,73.81,60,75,23.02,AU,1668580979
247,otukpo,7.1913,8.1329,75.76,62,92,2.28,NG,1668580979
248,lebu,-37.6167,-73.65,52.65,93,100,5.26,CL,1668580979
249,ponnani,10.767,75.9252,85.32,67,33,1.54,IN,1668580980
250,bouar,5.934,15.596,75.15,45,64,4.54,CF,1668580980
251,jadu,31.953,12.0261,58.64,28,0,13.31,LY,1668580981
252,anadyr,64.75,177.4833,37.9,86,40,38.03,RU,1668580981
253,deputatskiy,69.3,139.9,-29.52,99,82,3.24,RU,1668580981
254,malinovoye ozero,51.6753,79.7825,35.87,57,68,16.62,RU,1668580982
255,port augusta,-32.5,137.7667,66.06,40,0,15.43,AU,1668580982
256,senno,59.5336,33.9167,25.27,96,59,3.04,RU,1668580983
257,nouadhibou,20.931,-17.0347,73.31,57,0,12.71,MR,1668580983
258,port blair,11.6667,92.75,84.24,79,40,4.61,IN,1668580983
259,ancud,-41.8697,-73.8203,52.12,97,81,3.94,CL,1668580984
260,berdigestyakh,62.0989,126.6992,-27.27,100,23,3.53,RU,1668580985
261,burnie,-41.0667,145.9167,58.95,43,63,11.39,AU,1668580823
262,darovskoy,58.77,47.9564,15.28,77,51,3.2,RU,1668580985
263,wanaka,-44.7,169.15,58.59,87,100,2.33,NZ,1668580986
264,sorland,67.667,12.6934,44.46,54,15,10.67,NO,1668580986
265,prince rupert,54.3161,-130.3201,42.49,92,0,4.61,CA,1668580777
266,kurilsk,45.2333,147.8833,40.24,82,100,10.07,RU,1668580986
267,gari,59.4307,62.3497,5.4,82,100,6.96,RU,1668580987
268,longyearbyen,78.2186,15.6401,39.04,75,75,4.61,SJ,1668580863
269,pochutla,15.7432,-96.4661,72.82,63,100,3.98,MX,1668580988
270,dubbo,-32.25,148.6167,62.73,31,75,16.11,AU,1668580988
271,lubbock,33.6001,-101.8338,36.14,61,0,4.61,US,1668580916
272,bull savanna,17.8868,-77.5902,73.76,84,8,4.05,JM,1668580989
273,mayo,38.8876,-76.5119,43.97,95,100,4.0,US,1668580989
274,sidhauli,27.2833,80.8333,80.83,35,0,6.26,IN,1668580989
275,mandalay,21.9747,96.0836,86.07,41,0,6.55,MM,1668580990
276,kidal,18.4411,1.4078,70.11,19,100,8.81,ML,1668580990
277,sovetskiy,61.3614,63.5842,-0.33,74,62,4.88,RU,1668580991
278,malko tarnovo,41.9833,27.5333,47.89,75,100,6.22,BG,1668580991
279,muravlenko,63.7898,74.523,-9.8,87,14,7.74,RU,1668580991
280,crossville,35.949,-85.0269,38.5,94,100,8.05,US,1668580992
281,bograd,54.2344,90.8328,37.38,50,100,16.49,RU,1668580992
282,vao,-22.6667,167.4833,74.71,81,100,10.04,NC,1668580993
283,talnakh,69.4865,88.3972,-18.78,100,84,5.28,RU,1668580993
284,alihe,50.5667,123.7167,24.62,66,26,0.87,CN,1668580993
285,mumford,5.2618,-0.759,77.72,85,33,6.02,GH,1668580994
286,nouakchott,18.0858,-15.9785,75.13,49,0,9.55,MR,1668580928
287,saskylakh,71.9167,114.0833,-27.13,97,65,6.15,RU,1668580994
288,lompoc,34.6391,-120.4579,54.93,88,0,8.05,US,1668580995
289,chuy,-33.6971,-53.4616,54.73,60,0,6.22,UY,1668580995
290,ginda,30.6945,78.4932,61.34,38,4,6.6,IN,1668580996
291,qasigiannguit,68.8193,-51.1922,23.25,95,100,3.33,GL,1668580996
292,dhing,26.4667,92.4667,78.15,54,0,3.76,IN,1668580996
293,churapcha,62.0025,132.4325,-34.67,99,26,3.4,RU,1668580997
294,leninskoye,41.7589,69.3864,38.41,93,100,8.72,KZ,1668580997
295,mut,36.6439,33.4389,60.75,58,2,2.15,TR,1668580998
296,vaini,-21.2,-175.2,77.09,76,5,6.62,TO,1668580998
297,sarankhola,22.3082,89.7897,83.52,46,0,7.23,BD,1668580999
298,chhuikhadan,21.5333,80.9833,81.72,28,0,5.86,IN,1668580999
299,carmen,18.6333,-91.8333,80.38,73,58,13.31,MX,1668580999
300,bilma,18.6853,12.9164,65.79,25,10,6.85,NE,1668581000
301,ust-tsilma,65.441,52.1498,14.58,92,100,7.34,RU,1668581000
302,sedkyrkeshch,61.75,50.9167,-1.93,92,100,4.47,RU,1668581001
303,seydisehir,37.4193,31.8453,49.84,46,0,2.24,TR,1668581001
304,fort nelson,58.8053,-122.7002,27.99,60,100,9.22,CA,1668581002
305,boyolangu,-8.1181,111.8935,79.61,86,100,2.1,ID,1668581002
306,askiz,53.1319,90.5264,40.33,54,57,13.22,RU,1668581002
307,tagusao,9.1924,117.8141,84.92,72,89,3.67,PH,1668581003
308,sirawai,7.5854,122.1407,84.79,75,100,1.59,PH,1668581003
309,san juan,-31.5375,-68.5364,78.17,31,5,9.78,AR,1668580914
310,tiarei,-17.5333,-149.3333,75.22,78,100,5.57,PF,1668581004
311,kapit,2.0167,112.9333,80.62,84,100,2.73,MY,1668581004
312,morgan city,29.6994,-91.2068,46.4,71,100,14.97,US,1668581005
313,capitao poco,-1.7464,-47.0594,70.2,96,100,3.98,BR,1668581005
314,vilyuysk,63.7553,121.6247,-13.14,93,98,8.63,RU,1668581006
315,urubicha,-15.3833,-62.95,72.59,74,100,2.82,BO,1668581006
316,reconquista,-29.15,-59.65,64.51,39,80,4.14,AR,1668581006
317,bima,-8.4667,118.7167,85.75,71,100,3.2,ID,1668581007
318,cayenne,4.9333,-52.3333,73.44,94,0,2.3,GF,1668581007
319,pandaria,22.2333,81.4167,83.26,27,0,4.38,IN,1668581008
320,ahipara,-35.1667,173.1667,64.11,92,100,2.71,NZ,1668581008
321,manono,-7.3,27.4167,75.25,83,97,1.86,CD,1668581008
322,cherskiy,68.75,161.3,-2.06,89,100,14.47,RU,1668581009
323,bara,10.3744,10.7288,65.98,27,95,10.07,NG,1668581009
324,golden,39.7555,-105.2211,27.5,47,7,4.0,US,1668580767
325,teruel,40.6667,-0.6667,45.3,84,94,12.57,ES,1668581010
326,bathsheba,13.2167,-59.5167,81.21,78,20,14.97,BB,1668581010
327,kushima,31.4583,131.2333,66.83,42,16,1.63,JP,1668581010
328,eyl,7.9803,49.8164,85.44,54,2,14.54,SO,1668581011
329,thompson,55.7435,-97.8558,12.36,85,100,2.3,CA,1668581011
330,terrassa,41.5667,2.0167,61.47,76,20,3.44,ES,1668581012
331,krasnoselkup,65.7,82.4667,-12.03,96,14,9.22,RU,1668581012
332,saint george,37.1041,-113.5841,43.39,44,0,24.16,US,1668580750
333,cidreira,-30.1811,-50.2056,62.26,75,0,7.85,BR,1668581013
334,noyabrsk,63.1994,75.4507,-9.08,86,10,9.82,RU,1668581013
335,ossora,59.2353,163.0719,19.89,79,99,5.37,RU,1668581013
336,bilibino,68.0546,166.4372,-1.71,97,100,9.37,RU,1668581014
337,sorong,-0.8833,131.25,82.87,79,100,9.48,ID,1668581014
338,kavaratti,10.5669,72.642,81.68,70,34,1.39,IN,1668581015
339,arica,-18.475,-70.3042,66.43,68,100,5.75,CL,1668580772
340,keti bandar,24.1447,67.4497,84.31,33,0,4.72,PK,1668581016
341,coos bay,43.3665,-124.2179,46.38,80,0,3.44,US,1668581016
342,anchorage,61.2181,-149.9003,29.91,88,0,4.0,US,1668581016
343,dharchula,29.85,80.5333,68.54,32,0,6.64,IN,1668581017
344,thinadhoo,0.5333,72.9333,81.57,73,100,12.3,MV,1668581017
345,los llanos de aridane,28.6585,-17.9182,69.12,24,0,9.22,ES,1668581017
346,otane,-39.8833,176.6333,67.01,96,79,2.57,NZ,1668581018
347,diamantino,-14.4086,-56.4461,70.63,85,1,3.29,BR,1668581018
348,zhezkazgan,47.8043,67.7144,22.98,74,75,26.84,KZ,1668581019
349,ratholo,-22.7245,27.572,79.79,36,0,8.93,BW,1668581019
350,yar-sale,66.8333,70.8333,-4.27,82,93,7.81,RU,1668581019
351,isangel,-19.55,169.2667,86.11,74,20,0.0,VU,1668581020
352,guerrero negro,27.9769,-114.0611,61.81,63,14,0.49,MX,1668581020
353,hongjiang,27.11,109.9956,60.04,82,100,3.09,CN,1668581021
354,ilulissat,69.2167,-51.1,23.02,86,100,0.0,GL,1668581021
355,kontagora,10.3999,5.4695,72.82,31,89,6.58,NG,1668581021
356,rasht,37.2808,49.5832,60.62,82,20,0.0,IR,1668581022
357,flinders,-34.5833,150.8552,62.19,60,50,8.01,AU,1668581022
358,mantua,45.1667,10.7833,50.95,92,100,1.99,IT,1668580854
359,selikhino,50.3672,137.4996,22.75,89,100,3.69,RU,1668581023
360,ayan,56.45,138.1667,9.09,60,0,11.95,RU,1668581023
361,leningradskiy,69.3833,178.4167,14.41,94,100,5.19,RU,1668581024
362,beloha,-25.1667,45.05,84.31,50,45,7.14,MG,1668581024
363,plougastel-daoulas,48.3667,-4.3667,53.62,79,75,17.27,FR,1668581024
364,halifax,44.6453,-63.5724,35.6,80,100,5.75,CA,1668581025
365,goundi,9.3627,17.366,81.34,30,10,6.31,TD,1668581025
366,itacarambi,-15.1022,-44.0919,69.76,97,100,2.55,BR,1668581026
367,elk river,45.3038,-93.5672,32.49,95,100,3.87,US,1668581026
368,provideniya,64.3833,-173.3,32.45,96,100,13.91,RU,1668581026
369,umm kaddadah,13.6017,26.6876,73.54,24,0,19.1,SD,1668581027
370,sandovo,58.4602,36.4128,27.79,90,66,2.51,RU,1668581027
371,takoradi,4.8845,-1.7554,78.31,84,10,3.2,GH,1668581028
372,yumen,40.2833,97.2,51.39,14,13,14.83,CN,1668581029
373,kalmunai,7.4167,81.8167,81.9,76,100,12.08,LK,1668581029
374,laurinburg,34.7741,-79.4628,48.87,87,100,4.61,US,1668580746
375,along,28.1667,94.7667,79.83,34,1,1.92,IN,1668581030
376,tarabha,20.7333,83.65,80.6,37,9,3.94,IN,1668581030
377,kununurra,-15.7667,128.7333,89.58,55,100,9.22,AU,1668581031
378,ixtapa,20.7,-105.2,72.23,82,0,3.11,MX,1668581031
379,ardakan,32.31,54.0175,63.3,27,0,2.24,IR,1668581032
380,nhulunbuy,-12.2333,136.7667,90.21,62,75,11.5,AU,1668581032
381,pop,40.8736,71.1089,50.49,50,100,2.3,UZ,1668581032
382,nelson bay,-32.7167,152.15,59.0,70,93,15.99,AU,1668581033
383,karratha,-20.7377,116.8463,79.97,57,0,14.67,AU,1668581033
384,alanya,36.5438,31.9998,57.33,44,0,1.01,TR,1668580924
385,mar del plata,-38.0023,-57.5575,59.09,88,0,3.44,AR,1668580839
386,komsomolskiy,40.4272,71.7189,48.92,66,100,9.22,UZ,1668581034
387,aklavik,68.2191,-135.0107,6.46,85,100,9.01,CA,1668581034
388,aketi,2.7388,23.7833,75.69,86,92,1.41,CD,1668581035
389,kieta,-6.2167,155.6333,81.28,82,56,3.94,PG,1668581035
390,storforshei,66.4043,14.5233,25.66,93,0,2.3,NO,1668581035
391,bichena,10.45,38.2,60.39,42,0,5.55,ET,1668581036
392,udachnyy,66.4167,112.4,-19.55,68,100,3.91,RU,1668581036
393,touros,-5.1989,-35.4608,78.67,67,100,13.31,BR,1668581037
394,cortes,41.9395,-1.4396,51.85,66,44,6.69,ES,1668581037
395,sao filipe,14.8961,-24.4956,74.34,72,12,2.46,CV,1668581038
396,evensk,61.95,159.2333,10.83,70,98,8.08,RU,1668581038
397,lazaro cardenas,17.9583,-102.2,74.77,90,2,3.4,MX,1668580749
398,paita,-5.0892,-81.1144,63.5,87,90,11.92,PE,1668581038
399,gat,31.61,34.7642,66.4,100,2,10.25,IL,1668580922
400,kashi,39.4547,75.9797,47.41,29,0,2.24,CN,1668581039
401,seoul,37.5683,126.9778,56.77,35,0,10.36,KR,1668580800
402,yeppoon,-23.1333,150.7333,91.18,54,100,2.84,AU,1668581039
403,saquena,-4.6667,-73.5167,72.27,100,100,1.59,PE,1668581040
404,grindavik,63.8424,-22.4338,49.95,81,100,13.8,IS,1668581040
405,sumbe,-11.2061,13.8437,75.76,72,91,1.12,AO,1668581041
406,yashkul,46.1711,45.3435,36.61,42,25,13.96,RU,1668581041
407,ha giang,22.8333,104.9833,81.07,81,57,4.79,VN,1668581041
408,coahuayana,18.7333,-103.6833,72.61,84,0,3.71,MX,1668581042
409,oktyabrskoye,43.0645,44.7417,28.54,100,100,0.0,RU,1668581042
410,waipawa,-41.4122,175.5153,60.08,71,19,2.08,NZ,1668581043
411,powell,40.1578,-83.0752,38.61,89,100,7.0,US,1668580890
412,hualmay,-11.0964,-77.6139,62.51,89,100,7.78,PE,1668581043
413,shakawe,-18.3667,21.85,83.86,42,0,9.37,BW,1668581044
414,mizdah,31.4451,12.9801,57.2,33,0,6.8,LY,1668581044
415,bealanana,-14.55,48.7333,80.83,42,0,3.6,MG,1668581044
416,sandpoint,48.2766,-116.5533,26.74,84,75,0.0,US,1668581042
417,beringovskiy,63.05,179.3167,37.65,98,100,25.23,RU,1668581045
418,linjiang,41.8069,126.9078,40.26,50,0,2.82,CN,1668581045
419,magadan,59.5667,150.8,12.92,75,89,6.87,RU,1668581046
420,sisimiut,66.9395,-53.6735,13.77,90,94,7.09,GL,1668581046
421,egvekinot,66.3167,-179.1667,28.22,99,100,20.87,RU,1668581047
422,colac,-38.3333,143.5833,52.18,60,26,11.01,AU,1668581047
423,paramonga,-10.6667,-77.8333,62.67,90,92,7.2,PE,1668581048
424,vestmannaeyjar,63.4427,-20.2734,41.97,87,100,9.48,IS,1668581048
425,solnechnyy,50.7214,136.6319,19.67,87,100,2.35,RU,1668581048
426,sambava,-14.2667,50.1667,80.31,67,25,10.74,MG,1668581049
427,poum,-20.2333,164.0167,79.43,76,8,10.74,NC,1668581049
428,dwarka,22.2394,68.9678,84.81,44,0,7.81,IN,1668580760
429,chimbote,-9.0853,-78.5783,62.06,89,91,5.5,PE,1668581050
430,atambua,-9.1061,124.8925,83.8,64,100,4.25,ID,1668581050
431,jining,35.405,116.5814,64.29,26,100,7.83,CN,1668581051
432,la ronge,55.1001,-105.2842,28.65,74,100,16.11,CA,1668581051
433,santa cruz,-17.8,-63.1667,74.66,78,40,3.44,BO,1668580842
434,broome,42.2506,-75.833,35.02,84,100,3.44,US,1668581052
435,itarema,-2.9248,-39.9167,76.69,77,3,14.47,BR,1668581052
436,sharjah,25.3573,55.4033,84.49,61,0,6.91,AE,1668581053
437,ostrovnoy,68.0531,39.5131,36.28,78,100,22.84,RU,1668581053
438,grand gaube,-20.0064,57.6608,77.4,66,82,10.38,MU,1668581053
439,magdagachi,53.45,125.8,16.16,86,100,2.1,RU,1668581054
440,port hardy,50.6996,-127.4199,30.38,100,0,4.61,CA,1668581054
441,mercedes,-34.6515,-59.4307,62.04,60,0,2.89,AR,1668581055
442,amos,48.5669,-78.1162,21.0,82,100,5.86,CA,1668580986
443,notre-dame-du-lac,47.6136,-68.7964,25.14,98,100,0.96,CA,1668581055
444,benoy,8.9833,16.3199,78.57,35,27,5.3,TD,1668581056
445,tsabong,-26.0217,22.401,79.79,29,4,11.39,BW,1668581056
446,fuyu,45.1833,124.8167,36.32,53,6,5.32,CN,1668581056
447,phalodi,27.1333,72.3667,80.42,21,0,3.2,IN,1668581057
448,adrar,20.5022,-10.0711,68.58,30,5,9.82,MR,1668581057
449,narsaq,60.9167,-46.05,28.62,96,89,1.77,GL,1668581058
450,gainesville,29.6516,-82.3248,71.69,86,100,0.0,US,1668580924
451,fairbanks,64.8378,-147.7164,10.6,88,0,3.44,US,1668581058
452,chegutu,-18.1302,30.1407,79.05,48,0,2.55,ZW,1668581059
453,westport,41.1415,-73.3579,45.75,71,100,16.11,US,1668581059
454,abbeville,50.1,1.8333,47.48,89,55,16.37,FR,1668581059
455,boone,39.0334,-92.3335,32.85,95,6,7.14,US,1668581060
456,nemuro,43.3236,145.575,43.83,64,63,14.36,JP,1668581060
457,kondoa,-4.9,35.7833,76.62,41,12,8.3,TZ,1668581061
458,palmares do sul,-30.2578,-50.5097,63.09,74,0,5.95,BR,1668581061
459,olafsvik,64.8945,-23.7142,43.84,84,100,15.88,IS,1668581061
460,san angelo,31.4638,-100.437,42.55,59,20,5.75,US,1668581035
461,kedrovyy,56.1667,91.8167,32.41,90,100,15.05,RU,1668581062
462,tshikapa,-6.4167,20.8,73.2,91,100,1.34,CD,1668581063
463,gazojak,41.1875,61.4036,41.05,45,6,10.11,TM,1668581063
464,lakes entrance,-37.8811,147.981,56.16,68,96,16.46,AU,1668581063
465,quatre cocos,-20.2078,57.7625,77.11,70,94,9.93,MU,1668581064
466,bandrele,-12.9067,45.1914,82.15,69,100,5.75,YT,1668581064
467,tuy hoa,13.0833,109.3,80.78,84,67,9.13,VN,1668581065
468,plouzane,48.3833,-4.6167,53.65,79,75,17.27,FR,1668581065
469,macherla,16.4833,79.4333,80.94,44,3,5.59,IN,1668581065
470,guayaramerin,-10.8368,-65.3614,72.05,99,100,2.24,BO,1668581066
471,lucapa,-8.4192,20.7447,70.83,85,100,5.08,AO,1668581066
472,smidovich,48.6,133.8167,24.66,80,21,3.44,RU,1668581067
473,usogorsk,63.4106,48.6872,16.72,93,100,7.36,RU,1668581067
474,broken hill,-31.95,141.4333,63.39,31,3,16.26,AU,1668580838
475,mafeteng,-29.823,27.2374,70.56,46,4,16.55,LS,1668581068
476,naliya,23.2667,68.8333,87.85,32,0,3.04,IN,1668581068
477,akyab,20.15,92.9,82.8,55,2,6.44,MM,1668581069
478,santiago del estero,-27.7951,-64.2615,72.57,39,26,8.97,AR,1668580945
479,peterongan,-7.5394,112.2792,81.21,82,100,3.24,ID,1668581069
480,hervey bay,-25.2986,152.8535,83.01,70,78,8.01,AU,1668581043
481,vila,42.0304,-8.1588,47.28,94,100,7.09,PT,1668581070
482,viedma,-40.8135,-62.9967,62.4,47,19,7.94,AR,1668581070
483,elizabeth city,36.2946,-76.2511,57.99,95,100,11.5,US,1668581071
484,celestun,20.8667,-90.4,75.74,85,8,9.51,MX,1668581071
485,kasama,-10.2129,31.1808,77.38,44,75,6.91,ZM,1668581072
486,faya,18.3851,42.4509,66.31,27,0,2.86,SA,1668581072
487,hofn,64.2539,-15.2082,45.84,97,100,7.05,IS,1668581072
488,sept-iles,50.2001,-66.3821,23.0,86,20,3.44,CA,1668581073
489,harper,4.375,-7.7169,77.41,84,34,3.47,LR,1668581073
490,chavakkad,10.5333,76.05,84.9,65,80,3.13,IN,1668581074
491,amapa,1.0,-52.0,68.86,99,100,1.16,BR,1668581074
492,azoyu,16.7167,-98.7333,73.35,92,80,3.87,MX,1668581074
493,grand-lahou,5.1367,-5.0242,78.35,81,12,4.23,CI,1668581075
494,gidam,18.9833,81.4,82.76,27,5,4.68,IN,1668581075
495,saint-pierre,-21.3393,55.4781,78.48,47,75,18.41,RE,1668581076
496,ahuimanu,21.4447,-157.8378,74.91,71,20,6.91,US,1668581076
497,proletarsk,46.7031,41.7192,36.93,57,98,9.71,RU,1668581076
498,road town,18.4167,-64.6167,78.89,71,5,19.6,VG,1668580828
499,sur,22.5667,59.5289,84.36,47,0,6.8,OM,1668581077
500,boueni,-12.9025,45.0761,82.38,74,18,3.83,YT,1668581077
501,arak,34.0917,49.6892,41.76,61,0,4.61,IR,1668581078
502,newton,42.337,-71.2092,39.11,90,100,10.36,US,1668581078
503,praia da vitoria,38.7333,-27.0667,66.45,88,40,12.8,PT,1668581078
504,maceio,-9.6658,-35.7353,72.84,94,0,5.75,BR,1668581079
505,griffith,41.5284,-87.4237,34.29,89,100,10.36,US,1668581079
506,dingle,10.9995,122.6711,84.88,76,56,11.86,PH,1668581080
507,hovd,48.0056,91.6419,43.25,16,86,5.75,MN,1668581080
508,bandarbeyla,9.4942,50.8122,82.54,61,9,16.51,SO,1668581080
509,vokhtoga,58.8147,41.0461,25.79,80,88,1.79,RU,1668581081
510,marawi,7.9986,124.2928,74.91,90,100,4.41,PH,1668581081
511,ust-kuyga,70.0167,135.6,-35.18,99,98,5.7,RU,1668581082
512,murovane,49.5214,22.9367,42.71,86,100,1.81,UA,1668581082
513,sile,41.1754,29.6133,54.27,69,14,1.01,TR,1668581082
514,mudanya,40.3753,28.8822,54.18,64,11,2.19,TR,1668581083
515,maragogi,-9.0122,-35.2225,74.66,82,73,6.33,BR,1668581083
516,jacobina,-11.1806,-40.5183,68.4,97,63,3.83,BR,1668581083
517,pemba,-12.974,40.5178,84.9,65,20,8.05,MZ,1668581084
518,dogondoutchi,13.6393,4.0287,70.99,21,24,7.34,NE,1668581084
519,parnamirim,-5.9156,-35.2628,75.54,83,40,4.61,BR,1668580907
520,nome,64.5011,-165.4064,26.67,80,0,17.27,US,1668581085
521,taft,31.7471,54.2088,53.55,35,0,4.61,IR,1668581085
522,mana,5.6592,-53.7767,75.94,89,100,7.52,GF,1668581086
523,nanakuli,21.3906,-158.1547,75.15,64,0,5.75,US,1668581086
524,brattvag,62.6002,6.4434,49.66,29,0,19.57,NO,1668581086
525,sungaipenuh,-2.0833,101.3833,67.3,92,100,2.3,ID,1668581087
526,college,64.8569,-147.8028,10.58,89,0,3.44,US,1668581087
527,sagua la grande,22.8067,-80.0756,70.79,88,13,5.93,CU,1668581088
528,montevideo,-34.8335,-56.1674,55.11,76,0,5.75,UY,1668581088
529,shellbrook,53.2168,-106.4011,24.03,80,100,15.99,CA,1668580890
530,sibolga,1.7427,98.7792,80.13,86,100,5.06,ID,1668581089
531,gweta,-20.1833,25.2333,80.71,42,0,13.67,BW,1668581089
532,rio gallegos,-51.6226,-69.2181,42.85,65,0,16.11,AR,1668581089
533,malakal,9.5334,31.6605,86.95,24,4,10.27,SS,1668581090
534,georgiyevka,43.0369,74.7114,32.04,93,75,2.24,KZ,1668581090
535,culaman,5.9603,125.6586,81.93,78,100,6.13,PH,1668581091
536,pemangkat,1.1667,108.9667,83.8,72,77,8.01,ID,1668581091
537,mehamn,71.0357,27.8492,40.95,75,75,9.22,NO,1668581091
538,peoria,40.7667,-89.7668,33.46,92,72,6.58,US,1668581092
539,port macquarie,-31.4333,152.9167,65.89,48,100,12.08,AU,1668581092
540,toamasina,-18.1667,49.3833,80.6,69,40,6.91,MG,1668581093
541,rocha,-34.4833,-54.3333,57.31,47,0,4.94,UY,1668581093
542,lichuan,30.3,108.85,49.23,91,100,0.87,CN,1668581093
543,chapais,49.7834,-74.8492,15.58,93,100,3.27,CA,1668580922
544,ouro preto do oeste,-10.7481,-62.2158,70.5,96,100,1.95,BR,1668581094
545,xuddur,4.1213,43.8894,84.07,45,38,14.67,SO,1668581094
546,baiyin,36.5583,104.2081,52.74,30,0,7.81,CN,1668581095
547,asfi,32.2994,-9.2372,65.89,63,48,1.39,MA,1668581095
548,hirara,24.8,125.2833,73.67,88,75,13.8,JP,1668581096
549,camabatela,-8.1881,15.375,65.48,74,100,3.29,AO,1668581096
550,colesberg,-30.72,25.0972,72.05,49,1,9.93,ZA,1668581096
551,kleive,62.7954,7.6359,46.72,60,0,8.05,NO,1668581097
552,yulara,-25.2406,130.9889,63.68,82,100,13.96,AU,1668581097
553,saint-augustin,51.226,-58.6502,18.68,84,8,7.31,CA,1668581097
554,vakhsh,37.7149,68.8346,55.62,76,75,4.47,TJ,1668581098
